GLOBAL_POSITION_INT {time_boot_ms : 1166371, lat : 0, lon : 0, alt : 12240, relative_alt : 12246, vx : 0, vy : 0, vz : 0, hdg : 760}
SYS_STATUS {onboard_control_sensors_present : 325188671, onboard_control_sensors_enabled : 274824239, onboard_control_sensors_health : 53541903, load : 65, voltage_battery : 0, current_battery : -1, battery_remaining : -1, drop_rate_comm : 0, errors_comm : 0, errors_count1 : 0, errors_count2 : 0, errors_count3 : 0, errors_count4 : 0}
POWER_STATUS {Vcc : 4796, Vservo : 4627, flags : 0}
MEMINFO {brkval : 0, freemem : 54912, freemem32 : 54912}
NAV_CONTROLLER_OUTPUT {nav_roll : 0.0, nav_pitch : 0.0, nav_bearing : 0, target_bearing : 0, wp_dist : 0, alt_error : 87.47000122070312, aspd_error : 0.0, xtrack_error : 0.0}
MISSION_CURRENT {seq : 0, total : 0, mission_state : 0, mission_mode : 0}
SERVO_OUTPUT_RAW {time_usec : 1166451031, port : 0, servo1_raw : 1556, servo2_raw : 1100, servo3_raw : 1100, servo4_raw : 1510, servo5_raw : 0, servo6_raw : 1900, servo7_raw : 0, servo8_raw : 0, servo9_raw : 0, servo10_raw : 0, servo11_raw : 0, servo12_raw : 0, servo13_raw : 0, servo14_raw : 0, servo15_raw : 0, servo16_raw : 0}
RC_CHANNELS {time_boot_ms : 1166451, chancount : 0, chan1_raw : 1612, chan2_raw : 1500, chan3_raw : 0, chan4_raw : 1381, chan5_raw : 0, chan6_raw : 0, chan7_raw : 0, chan8_raw : 0, chan9_raw : 0, chan10_raw : 0, chan11_raw : 0, chan12_raw : 0, chan13_raw : 0, chan14_raw : 0, chan15_raw : 0, chan16_raw : 0, chan17_raw : 0, chan18_raw : 0, rssi : 255}
RAW_IMU {time_usec : 1166470892, xacc : -225, yacc : 14, zacc : -985, xgyro : -3, ygyro : 7, zgyro : 9, xmag : 193, ymag : 186, zmag : 243, id : 0, temperature : 4569}
SCALED_IMU2 {time_boot_ms : 1166470, xacc : -231, yacc : 23, zacc : -978, xgyro : -22, ygyro : 44, zgyro : -12, xmag : 581, ymag : -74, zmag : 145, temperature : 4550}
SCALED_PRESSURE {time_boot_ms : 1166471, press_abs : 1013.8533935546875, press_diff : 0.0, temperature : 4145, temperature_press_diff : 0}
GPS_RAW_INT {time_usec : 0, fix_type : 1, lat : 399527997, lon : -751905685, alt : 28850, eph : 9999, epv : 9999, vel : 0, cog : 0, satellites_visible : 0, alt_ellipsoid : -5665, h_acc : 3270471680, v_acc : 2312572672, vel_acc : 1000000, hdg_acc : 0, yaw : 0}
SYSTEM_TIME {time_unix_usec : 0, time_boot_ms : 1166511}
AHRS {omegaIx : 0.003493071533739567, omegaIy : -0.007161836605519056, omegaIz : -0.010318617336452007, accel_weight : 0.0, renorm_val : 0.0, error_rp : 0.001980437431484461, error_yaw : 0.0013450111728161573}
WIND {direction : -180.0, speed : 0.0, speed_z : 0.0}
TERRAIN_REPORT {lat : 0, lon : 0, spacing : 0, terrain_height : 0.0, current_height : 0.0, pending : 0, loaded : 224}
VIBRATION {time_usec : 1166530864, vibration_x : 0.022441286593675613, vibration_y : 0.023474110290408134, vibration_z : 0.03112201951444149, clipping_0 : 0, clipping_1 : 0, clipping_2 : 0}
POSITION_TARGET_GLOBAL_INT {time_boot_ms : 1166530, coordinate_frame : 0, type_mask : 65016, lat_int : 0, lon_int : 0, alt : 100.0, vx : 0.0, vy : 0.0, vz : 0.0, afx : 0.0, afy : 0.0, afz : 0.0, yaw : 0.0, yaw_rate : 0.0}
ATTITUDE {time_boot_ms : 1166530, roll : 0.05272259563207626, pitch : -0.16671188175678253, yaw : 0.13274510204792023, rollspeed : 3.068288788199425e-05, pitchspeed : 0.0005300776101648808, yawspeed : -8.63242894411087e-05}
VFR_HUD {airspeed : 0.0, groundspeed : 0.0, heading : 7, throttle : 0, alt : 11.859999656677246, climb : -0.0}
AOA_SSA {time_usec : 1166550950, AOA : 0.0, SSA : 0.0}
GLOBAL_POSITION_INT {time_boot_ms : 1166570, lat : 0, lon : 0, alt : 11490, relative_alt : 11498, vx : 0, vy : 0, vz : 0, hdg : 760}
GLOBAL_POSITION_INT {time_boot_ms : 1166590, lat : 0, lon : 0, alt : 11490, relative_alt : 11498, vx : 0, vy : 0, vz : 0, hdg : 760}
GLOBAL_POSITION_INT {time_boot_ms : 1166690, lat : 0, lon : 0, alt : 12360, relative_alt : 12365, vx : 0, vy : 0, vz : 0, hdg : 760}
ATTITUDE {time_boot_ms : 1166730, roll : 0.05270414799451828, pitch : -0.16669759154319763, yaw : 0.13268625736236572, rollspeed : -0.000835983082652092, pitchspeed : 0.001801526639610529, yawspeed : 0.0006506107747554779}
VFR_HUD {airspeed : 0.0, groundspeed : 0.0, heading : 7, throttle : 0, alt : 12.359999656677246, climb : -0.0}
AOA_SSA {time_usec : 1166730922, AOA : 0.0, SSA : 0.0}
GLOBAL_POSITION_INT {time_boot_ms : 1166790, lat : 0, lon : 0, alt : 12210, relative_alt : 12216, vx : 0, vy : 0, vz : 0, hdg : 759}
HEARTBEAT {type : 1, autopilot : 3, base_mode : 89, custom_mode : 11, system_status : 5, mavlink_version : 3}
GLOBAL_POSITION_INT {time_boot_ms : 1166890, lat : 0, lon : 0, alt : 12610, relative_alt : 12612, vx : 0, vy : 0, vz : 0, hdg : 760}
SYS_STATUS {onboard_control_sensors_present : 325188671, onboard_control_sensors_enabled : 274824239, onboard_control_sensors_health : 53541903, load : 64, voltage_battery : 0, current_battery : -1, battery_remaining : -1, drop_rate_comm : 0, errors_comm : 0, errors_count1 : 0, errors_count2 : 0, errors_count3 : 0, errors_count4 : 0}
POWER_STATUS {Vcc : 4758, Vservo : 4702, flags : 0}
MEMINFO {brkval : 0, freemem : 54912, freemem32 : 54912}
NAV_CONTROLLER_OUTPUT {nav_roll : 0.0, nav_pitch : 0.0, nav_bearing : 0, target_bearing : 0, wp_dist : 0, alt_error : 87.79000091552734, aspd_error : 0.0, xtrack_error : 0.0}
MISSION_CURRENT {seq : 0, total : 0, mission_state : 0, mission_mode : 0}
SERVO_OUTPUT_RAW {time_usec : 1166931287, port : 0, servo1_raw : 1556, servo2_raw : 1100, servo3_raw : 1100, servo4_raw : 1510, servo5_raw : 0, servo6_raw : 1900, servo7_raw : 0, servo8_raw : 0, servo9_raw : 0, servo10_raw : 0, servo11_raw : 0, servo12_raw : 0, servo13_raw : 0, servo14_raw : 0, servo15_raw : 0, servo16_raw : 0}
RC_CHANNELS {time_boot_ms : 1166931, chancount : 0, chan1_raw : 1612, chan2_raw : 1500, chan3_raw : 0, chan4_raw : 1381, chan5_raw : 0, chan6_raw : 0, chan7_raw : 0, chan8_raw : 0, chan9_raw : 0, chan10_raw : 0, chan11_raw : 0, chan12_raw : 0, chan13_raw : 0, chan14_raw : 0, chan15_raw : 0, chan16_raw : 0, chan17_raw : 0, chan18_raw : 0, rssi : 255}
RAW_IMU {time_usec : 1166950735, xacc : -224, yacc : 14, zacc : -982, xgyro : -2, ygyro : 6, zgyro : 10, xmag : 196, ymag : 188, zmag : 237, id : 0, temperature : 4570}
SCALED_IMU2 {time_boot_ms : 1166950, xacc : -222, yacc : 24, zacc : -992, xgyro : -25, ygyro : 43, zgyro : -12, xmag : 579, ymag : -73, zmag : 145, temperature : 4550}
SCALED_PRESSURE {time_boot_ms : 1166950, press_abs : 1013.765625, press_diff : 0.0, temperature : 4145, temperature_press_diff : 0}
GPS_RAW_INT {time_usec : 0, fix_type : 1, lat : 399527997, lon : -751905685, alt : 28850, eph : 9999, epv : 9999, vel : 0, cog : 0, satellites_visible : 0, alt_ellipsoid : -5665, h_acc : 3270887168, v_acc : 2312866816, vel_acc : 1000000, hdg_acc : 0, yaw : 0}
SYSTEM_TIME {time_unix_usec : 0, time_boot_ms : 1166990}
AHRS {omegaIx : 0.003493071533739567, omegaIy : -0.007161836605519056, omegaIz : -0.010318617336452007, accel_weight : 0.0, renorm_val : 0.0, error_rp : 0.0030533229000866413, error_yaw : 0.001314754830673337}
WIND {direction : -180.0, speed : 0.0, speed_z : 0.0}
TERRAIN_REPORT {lat : 0, lon : 0, spacing : 0, terrain_height : 0.0, current_height : 0.0, pending : 0, loaded : 224}
VIBRATION {time_usec : 1167010776, vibration_x : 0.019885022193193436, vibration_y : 0.02118135243654251, vibration_z : 0.034887976944446564, clipping_0 : 0, clipping_1 : 0, clipping_2 : 0}
POSITION_TARGET_GLOBAL_INT {time_boot_ms : 1167010, coordinate_frame : 0, type_mask : 65016, lat_int : 0, lon_int : 0, alt : 100.0, vx : 0.0, vy : 0.0, vz : 0.0, afx : 0.0, afy : 0.0, afz : 0.0, yaw : 0.0, yaw_rate : 0.0}
ATTITUDE {time_boot_ms : 1167010, roll : 0.05266433581709862, pitch : -0.16689515113830566, yaw : 0.1326827108860016, rollspeed : -0.0005020834505558014, pitchspeed : -0.0011373725719749928, yawspeed : 0.00021885056048631668}
VFR_HUD {airspeed : 0.0, groundspeed : 0.0, heading : 7, throttle : 0, alt : 11.9399995803833, climb : -0.0}
AOA_SSA {time_usec : 1167050941, AOA : 0.0, SSA : 0.0}
GLOBAL_POSITION_INT {time_boot_ms : 1167051, lat : 0, lon : 0, alt : 11940, relative_alt : 11948, vx : 0, vy : 0, vz : 0, hdg : 760}
GLOBAL_POSITION_INT {time_boot_ms : 1167090, lat : 0, lon : 0, alt : 11250, relative_alt : 11252, vx : 0, vy : 0, vz : 0, hdg : 760}
GLOBAL_POSITION_INT {time_boot_ms : 1167190, lat : 0, lon : 0, alt : 11740, relative_alt : 11748, vx : 0, vy : 0, vz : 0, hdg : 760}
ATTITUDE {time_boot_ms : 1167230, roll : 0.05275193974375725, pitch : -0.16669397056102753, yaw : 0.13266201317310333, rollspeed : -0.000558468047529459, pitchspeed : -0.00023607630282640457, yawspeed : 0.0001863846555352211}
VFR_HUD {airspeed : 0.0, groundspeed : 0.0, heading : 7, throttle : 0, alt : 11.739999771118164, climb : -0.0}
AOA_SSA {time_usec : 1167230928, AOA : 0.0, SSA : 0.0}
GLOBAL_POSITION_INT {time_boot_ms : 1167290, lat : 0, lon : 0, alt : 11480, relative_alt : 11487, vx : 0, vy : 0, vz : 0, hdg : 759}
GLOBAL_POSITION_INT {time_boot_ms : 1167410, lat : 0, lon : 0, alt : 11690, relative_alt : 11691, vx : 0, vy : 0, vz : 0, hdg : 759}
SYS_STATUS {onboard_control_sensors_present : 325188671, onboard_control_sensors_enabled : 274824239, onboard_control_sensors_health : 53541903, load : 63, voltage_battery : 0, current_battery : -1, battery_remaining : -1, drop_rate_comm : 0, errors_comm : 0, errors_count1 : 0, errors_count2 : 0, errors_count3 : 0, errors_count4 : 0}
POWER_STATUS {Vcc : 4775, Vservo : 4653, flags : 0}
MEMINFO {brkval : 0, freemem : 54912, freemem32 : 54912}
NAV_CONTROLLER_OUTPUT {nav_roll : 0.0, nav_pitch : 0.0, nav_bearing : 0, target_bearing : 0, wp_dist : 0, alt_error : 88.5199966430664, aspd_error : 0.0, xtrack_error : 0.0}
MISSION_CURRENT {seq : 0, total : 0, mission_state : 0, mission_mode : 0}
SERVO_OUTPUT_RAW {time_usec : 1167430947, port : 0, servo1_raw : 1556, servo2_raw : 1100, servo3_raw : 1100, servo4_raw : 1510, servo5_raw : 0, servo6_raw : 1900, servo7_raw : 0, servo8_raw : 0, servo9_raw : 0, servo10_raw : 0, servo11_raw : 0, servo12_raw : 0, servo13_raw : 0, servo14_raw : 0, servo15_raw : 0, servo16_raw : 0}
RC_CHANNELS {time_boot_ms : 1167430, chancount : 0, chan1_raw : 1612, chan2_raw : 1500, chan3_raw : 0, chan4_raw : 1381, chan5_raw : 0, chan6_raw : 0, chan7_raw : 0, chan8_raw : 0, chan9_raw : 0, chan10_raw : 0, chan11_raw : 0, chan12_raw : 0, chan13_raw : 0, chan14_raw : 0, chan15_raw : 0, chan16_raw : 0, chan17_raw : 0, chan18_raw : 0, rssi : 255}
RAW_IMU {time_usec : 1167470842, xacc : -225, yacc : 12, zacc : -983, xgyro : -2, ygyro : 6, zgyro : 10, xmag : 187, ymag : 182, zmag : 243, id : 0, temperature : 4570}
SCALED_IMU2 {time_boot_ms : 1167470, xacc : -221, yacc : 27, zacc : -996, xgyro : -26, ygyro : 46, zgyro : -15, xmag : 575, ymag : -71, zmag : 146, temperature : 4550}
SCALED_PRESSURE {time_boot_ms : 1167470, press_abs : 1013.8530883789062, press_diff : 0.0, temperature : 4145, temperature_press_diff : 0}
GPS_RAW_INT {time_usec : 0, fix_type : 1, lat : 399527997, lon : -751905685, alt : 28850, eph : 9999, epv : 9999, vel : 0, cog : 0, satellites_visible : 0, alt_ellipsoid : -5665, h_acc : 3271164160, v_acc : 2313062144, vel_acc : 1000000, hdg_acc : 0, yaw : 0}
SYSTEM_TIME {time_unix_usec : 0, time_boot_ms : 1167471}
AHRS {omegaIx : 0.003493071533739567, omegaIy : -0.007161836605519056, omegaIz : -0.010318617336452007, accel_weight : 0.0, renorm_val : 0.0, error_rp : 0.00239304406568408, error_yaw : 0.0017068955348804593}
WIND {direction : -180.0, speed : 0.0, speed_z : 0.0}
TERRAIN_REPORT {lat : 0, lon : 0, spacing : 0, terrain_height : 0.0, current_height : 0.0, pending : 0, loaded : 224}
VIBRATION {time_usec : 1167530913, vibration_x : 0.01993327960371971, vibration_y : 0.024684347212314606, vibration_z : 0.034894879907369614, clipping_0 : 0, clipping_1 : 0, clipping_2 : 0}
POSITION_TARGET_GLOBAL_INT {time_boot_ms : 1167530, coordinate_frame : 0, type_mask : 65016, lat_int : 0, lon_int : 0, alt : 100.0, vx : 0.0, vy : 0.0, vz : 0.0, afx : 0.0, afy : 0.0, afz : 0.0, yaw : 0.0, yaw_rate : 0.0}
ATTITUDE {time_boot_ms : 1167531, roll : 0.0528007410466671, pitch : -0.16661867499351501, yaw : 0.13253948092460632, rollspeed : 0.0007009427063167095, pitchspeed : -0.0011694361455738544, yawspeed : 0.0005651172250509262}
VFR_HUD {airspeed : 0.0, groundspeed : 0.0, heading : 7, throttle : 0, alt : 11.859999656677246, climb : -0.0}
AOA_SSA {time_usec : 1167550843, AOA : 0.0, SSA : 0.0}
GLOBAL_POSITION_INT {time_boot_ms : 1167551, lat : 0, lon : 0, alt : 11860, relative_alt : 11867, vx : 0, vy : 0, vz : 0, hdg : 759}
GLOBAL_POSITION_INT {time_boot_ms : 1167571, lat : 0, lon : 0, alt : 11720, relative_alt : 11729, vx : 0, vy : 0, vz : 0, hdg : 759}
GLOBAL_POSITION_INT {time_boot_ms : 1167690, lat : 0, lon : 0, alt : 11100, relative_alt : 11100, vx : 0, vy : 0, vz : 0, hdg : 758}
ATTITUDE {time_boot_ms : 1167730, roll : 0.052827250212430954, pitch : -0.16655541956424713, yaw : 0.13239188492298126, rollspeed : -0.0002888576127588749, pitchspeed : -0.0015729316510260105, yawspeed : 0.00038568582385778427}
VFR_HUD {airspeed : 0.0, groundspeed : 0.0, heading : 7, throttle : 0, alt : 11.09999942779541, climb : -0.0}
AOA_SSA {time_usec : 1167730911, AOA : 0.0, SSA : 0.0}
GLOBAL_POSITION_INT {time_boot_ms : 1167790, lat : 0, lon : 0, alt : 11760, relative_alt : 11764, vx : 0, vy : 0, vz : 0, hdg : 758}
HEARTBEAT {type : 1, autopilot : 3, base_mode : 89, custom_mode : 11, system_status : 5, mavlink_version : 3}
GLOBAL_POSITION_INT {time_boot_ms : 1167890, lat : 0, lon : 0, alt : 11550, relative_alt : 11552, vx : 0, vy : 0, vz : 0, hdg : 758}
SYS_STATUS {onboard_control_sensors_present : 325188671, onboard_control_sensors_enabled : 274824239, onboard_control_sensors_health : 53541903, load : 64, voltage_battery : 0, current_battery : -1, battery_remaining : -1, drop_rate_comm : 0, errors_comm : 0, errors_count1 : 0, errors_count2 : 0, errors_count3 : 0, errors_count4 : 0}
POWER_STATUS {Vcc : 4753, Vservo : 4699, flags : 0}
MEMINFO {brkval : 0, freemem : 54912, freemem32 : 54912}
NAV_CONTROLLER_OUTPUT {nav_roll : 0.0, nav_pitch : 0.0, nav_bearing : 0, target_bearing : 0, wp_dist : 0, alt_error : 88.23999786376953, aspd_error : 0.0, xtrack_error : 0.0}
MISSION_CURRENT {seq : 0, total : 0, mission_state : 0, mission_mode : 0}
SERVO_OUTPUT_RAW {time_usec : 1167951276, port : 0, servo1_raw : 1556, servo2_raw : 1100, servo3_raw : 1100, servo4_raw : 1510, servo5_raw : 0, servo6_raw : 1900, servo7_raw : 0, servo8_raw : 0, servo9_raw : 0, servo10_raw : 0, servo11_raw : 0, servo12_raw : 0, servo13_raw : 0, servo14_raw : 0, servo15_raw : 0, servo16_raw : 0}
RC_CHANNELS {time_boot_ms : 1167951, chancount : 0, chan1_raw : 1612, chan2_raw : 1500, chan3_raw : 0, chan4_raw : 1381, chan5_raw : 0, chan6_raw : 0, chan7_raw : 0, chan8_raw : 0, chan9_raw : 0, chan10_raw : 0, chan11_raw : 0, chan12_raw : 0, chan13_raw : 0, chan14_raw : 0, chan15_raw : 0, chan16_raw : 0, chan17_raw : 0, chan18_raw : 0, rssi : 255}
RAW_IMU {time_usec : 1167970878, xacc : -224, yacc : 14, zacc : -984, xgyro : -3, ygyro : 7, zgyro : 10, xmag : 193, ymag : 186, zmag : 238, id : 0, temperature : 4571}
SCALED_IMU2 {time_boot_ms : 1167970, xacc : -226, yacc : 20, zacc : -979, xgyro : -22, ygyro : 54, zgyro : -14, xmag : 579, ymag : -72, zmag : 146, temperature : 4549}
SCALED_PRESSURE {time_boot_ms : 1167970, press_abs : 1013.8512573242188, press_diff : 0.0, temperature : 4145, temperature_press_diff : 0}
GPS_RAW_INT {time_usec : 0, fix_type : 1, lat : 399527997, lon : -751905685, alt : 28850, eph : 9999, epv : 9999, vel : 0, cog : 0, satellites_visible : 0, alt_ellipsoid : -5665, h_acc : 3271579648, v_acc : 2313356544, vel_acc : 1000000, hdg_acc : 0, yaw : 0}
SYSTEM_TIME {time_unix_usec : 0, time_boot_ms : 1167971}
AHRS {omegaIx : 0.003480651881545782, omegaIy : -0.007156102452427149, omegaIz : -0.010352426208555698, accel_weight : 0.0, renorm_val : 0.0, error_rp : 0.0022327182814478874, error_yaw : 0.002305410336703062}
WIND {direction : -180.0, speed : 0.0, speed_z : 0.0}
TERRAIN_REPORT {lat : 0, lon : 0, spacing : 0, terrain_height : 0.0, current_height : 0.0, pending : 0, loaded : 224}
VIBRATION {time_usec : 1168030684, vibration_x : 0.021269988268613815, vibration_y : 0.02173733524978161, vibration_z : 0.03154173865914345, clipping_0 : 0, clipping_1 : 0, clipping_2 : 0}
POSITION_TARGET_GLOBAL_INT {time_boot_ms : 1168030, coordinate_frame : 0, type_mask : 65016, lat_int : 0, lon_int : 0, alt : 100.0, vx : 0.0, vy : 0.0, vz : 0.0, afx : 0.0, afy : 0.0, afz : 0.0, yaw : 0.0, yaw_rate : 0.0}
ATTITUDE {time_boot_ms : 1168030, roll : 0.05276251211762428, pitch : -0.16645494103431702, yaw : 0.13231401145458221, rollspeed : 0.0007022807840257883, pitchspeed : -1.897243782877922e-05, yawspeed : 0.0004219496622681618}
VFR_HUD {airspeed : 0.0, groundspeed : 0.0, heading : 7, throttle : 0, alt : 11.880000114440918, climb : -0.0}
AOA_SSA {time_usec : 1168031264, AOA : 0.0, SSA : 0.0}
GLOBAL_POSITION_INT {time_boot_ms : 1168070, lat : 0, lon : 0, alt : 12170, relative_alt : 12178, vx : 0, vy : 0, vz : 0, hdg : 757}
GLOBAL_POSITION_INT {time_boot_ms : 1168090, lat : 0, lon : 0, alt : 12170, relative_alt : 12178, vx : 0, vy : 0, vz : 0, hdg : 757}
GLOBAL_POSITION_INT {time_boot_ms : 1168390, lat : 0, lon : 0, alt : 11520, relative_alt : 11523, vx : 0, vy : 0, vz : 0, hdg : 757}
SYS_STATUS {onboard_control_sensors_present : 325188671, onboard_control_sensors_enabled : 274824239, onboard_control_sensors_health : 53541903, load : 64, voltage_battery : 0, current_battery : -1, battery_remaining : -1, drop_rate_comm : 0, errors_comm : 0, errors_count1 : 0, errors_count2 : 0, errors_count3 : 0, errors_count4 : 0}
POWER_STATUS {Vcc : 4784, Vservo : 4704, flags : 0}
MEMINFO {brkval : 0, freemem : 54912, freemem32 : 54912}
NAV_CONTROLLER_OUTPUT {nav_roll : 0.0, nav_pitch : 0.0, nav_bearing : 0, target_bearing : 0, wp_dist : 0, alt_error : 88.31999969482422, aspd_error : 0.0, xtrack_error : 0.0}
MISSION_CURRENT {seq : 0, total : 0, mission_state : 0, mission_mode : 0}
SERVO_OUTPUT_RAW {time_usec : 1168431027, port : 0, servo1_raw : 1556, servo2_raw : 1100, servo3_raw : 1100, servo4_raw : 1510, servo5_raw : 0, servo6_raw : 1900, servo7_raw : 0, servo8_raw : 0, servo9_raw : 0, servo10_raw : 0, servo11_raw : 0, servo12_raw : 0, servo13_raw : 0, servo14_raw : 0, servo15_raw : 0, servo16_raw : 0}
RC_CHANNELS {time_boot_ms : 1168431, chancount : 0, chan1_raw : 1612, chan2_raw : 1500, chan3_raw : 0, chan4_raw : 1381, chan5_raw : 0, chan6_raw : 0, chan7_raw : 0, chan8_raw : 0, chan9_raw : 0, chan10_raw : 0, chan11_raw : 0, chan12_raw : 0, chan13_raw : 0, chan14_raw : 0, chan15_raw : 0, chan16_raw : 0, chan17_raw : 0, chan18_raw : 0, rssi : 255}
RAW_IMU {time_usec : 1168450805, xacc : -226, yacc : 13, zacc : -985, xgyro : -2, ygyro : 7, zgyro : 10, xmag : 193, ymag : 187, zmag : 242, id : 0, temperature : 4571}
SCALED_IMU2 {time_boot_ms : 1168450, xacc : -214, yacc : 27, zacc : -967, xgyro : -20, ygyro : 58, zgyro : -13, xmag : 580, ymag : -72, zmag : 146, temperature : 4549}
SCALED_PRESSURE {time_boot_ms : 1168450, press_abs : 1013.8932495117188, press_diff : 0.0, temperature : 4146, temperature_press_diff : 0}
GPS_RAW_INT {time_usec : 0, fix_type : 1, lat : 399527997, lon : -751905685, alt : 28850, eph : 9999, epv : 9999, vel : 0, cog : 0, satellites_visible : 0, alt_ellipsoid : -5665, h_acc : 3271856896, v_acc : 2313552128, vel_acc : 1000000, hdg_acc : 0, yaw : 0}
SYSTEM_TIME {time_unix_usec : 0, time_boot_ms : 1168490}
AHRS {omegaIx : 0.003480651881545782, omegaIy : -0.007156102452427149, omegaIz : -0.010352426208555698, accel_weight : 0.0, renorm_val : 0.0, error_rp : 0.0021598683670163155, error_yaw : 0.0019936109893023968}
WIND {direction : -180.0, speed : 0.0, speed_z : 0.0}
TERRAIN_REPORT {lat : 0, lon : 0, spacing : 0, terrain_height : 0.0, current_height : 0.0, pending : 0, loaded : 224}
VIBRATION {time_usec : 1168511426, vibration_x : 0.024263275787234306, vibration_y : 0.02081422694027424, vibration_z : 0.03291495516896248, clipping_0 : 0, clipping_1 : 0, clipping_2 : 0}
POSITION_TARGET_GLOBAL_INT {time_boot_ms : 1168511, coordinate_frame : 0, type_mask : 65016, lat_int : 0, lon_int : 0, alt : 100.0, vx : 0.0, vy : 0.0, vz : 0.0, afx : 0.0, afy : 0.0, afz : 0.0, yaw : 0.0, yaw_rate : 0.0}
ATTITUDE {time_boot_ms : 1168511, roll : 0.05262941122055054, pitch : -0.1665763556957245, yaw : 0.1321410834789276, rollspeed : -4.4373562559485435e-05, pitchspeed : 0.0003207833506166935, yawspeed : -0.0003720466047525406}
VFR_HUD {airspeed : 0.0, groundspeed : 0.0, heading : 7, throttle : 0, alt : 11.969999313354492, climb : -0.0}
AOA_SSA {time_usec : 1168550918, AOA : 0.0, SSA : 0.0}
GLOBAL_POSITION_INT {time_boot_ms : 1168570, lat : 0, lon : 0, alt : 11970, relative_alt : 11975, vx : 0, vy : 0, vz : 0, hdg : 756}
GLOBAL_POSITION_INT {time_boot_ms : 1168590, lat : 0, lon : 0, alt : 11970, relative_alt : 11975, vx : 0, vy : 0, vz : 0, hdg : 756}
GLOBAL_POSITION_INT {time_boot_ms : 1168690, lat : 0, lon : 0, alt : 11940, relative_alt : 11940, vx : 0, vy : 0, vz : 0, hdg : 756}
ATTITUDE {time_boot_ms : 1168730, roll : 0.05258708819746971, pitch : -0.16648972034454346, yaw : 0.13202039897441864, rollspeed : 0.00011944328434765339, pitchspeed : -0.00032488303259015083, yawspeed : -0.00012499932199716568}
VFR_HUD {airspeed : 0.0, groundspeed : 0.0, heading : 7, throttle : 0, alt : 11.9399995803833, climb : -0.0}
AOA_SSA {time_usec : 1168730969, AOA : 0.0, SSA : 0.0}
GLOBAL_POSITION_INT {time_boot_ms : 1168790, lat : 0, lon : 0, alt : 11800, relative_alt : 11807, vx : 0, vy : 0, vz : 0, hdg : 756}
HEARTBEAT {type : 1, autopilot : 3, base_mode : 89, custom_mode : 11, system_status : 5, mavlink_version : 3}
GLOBAL_POSITION_INT {time_boot_ms : 1168911, lat : 0, lon : 0, alt : 11940, relative_alt : 11940, vx : 0, vy : 0, vz : 0, hdg : 756}
SYS_STATUS {onboard_control_sensors_present : 325188671, onboard_control_sensors_enabled : 274824239, onboard_control_sensors_health : 53541903, load : 63, voltage_battery : 0, current_battery : -1, battery_remaining : -1, drop_rate_comm : 0, errors_comm : 0, errors_count1 : 0, errors_count2 : 0, errors_count3 : 0, errors_count4 : 0}
POWER_STATUS {Vcc : 4803, Vservo : 4685, flags : 0}
MEMINFO {brkval : 0, freemem : 54912, freemem32 : 54912}
NAV_CONTROLLER_OUTPUT {nav_roll : 0.0, nav_pitch : 0.0, nav_bearing : 0, target_bearing : 0, wp_dist : 0, alt_error : 88.19999694824219, aspd_error : 0.0, xtrack_error : 0.0}
MISSION_CURRENT {seq : 0, total : 0, mission_state : 0, mission_mode : 0}
SERVO_OUTPUT_RAW {time_usec : 1168931005, port : 0, servo1_raw : 1556, servo2_raw : 1100, servo3_raw : 1100, servo4_raw : 1510, servo5_raw : 0, servo6_raw : 1900, servo7_raw : 0, servo8_raw : 0, servo9_raw : 0, servo10_raw : 0, servo11_raw : 0, servo12_raw : 0, servo13_raw : 0, servo14_raw : 0, servo15_raw : 0, servo16_raw : 0}
