SYS_STATUS {onboard_control_sensors_present : 325188671, onboard_control_sensors_enabled : 274824239, onboard_control_sensors_health : 57736239, load : 140, voltage_battery : 0, current_battery : -1, battery_remaining : -1, drop_rate_comm : 0, errors_comm : 0, errors_count1 : 0, errors_count2 : 0, errors_count3 : 0, errors_count4 : 0}
POWER_STATUS {Vcc : 4977, Vservo : 4895, flags : 0}
MEMINFO {brkval : 0, freemem : 53984, freemem32 : 53984}
NAV_CONTROLLER_OUTPUT {nav_roll : -14.519999504089355, nav_pitch : 0.0, nav_bearing : 131, target_bearing : 131, wp_dist : 45, alt_error : -12.050000190734863, aspd_error : 0.0, xtrack_error : -18.736724853515625}
MISSION_CURRENT {seq : 0, total : 0, mission_state : 0, mission_mode : 0}
SERVO_OUTPUT_RAW {time_usec : 2806482760, port : 0, servo1_raw : 1235, servo2_raw : 1233, servo3_raw : 1100, servo4_raw : 1632, servo5_raw : 0, servo6_raw : 0, servo7_raw : 0, servo8_raw : 0, servo9_raw : 0, servo10_raw : 0, servo11_raw : 0, servo12_raw : 0, servo13_raw : 0, servo14_raw : 0, servo15_raw : 0, servo16_raw : 0}
RC_CHANNELS {time_boot_ms : 11396417, chancount : 0, chan1_raw : 1500, chan2_raw : 1398, chan3_raw : 0, chan4_raw : 1501, chan5_raw : 0, chan6_raw : 0, chan7_raw : 0, chan8_raw : 0, chan9_raw : 0, chan10_raw : 0, chan11_raw : 0, chan12_raw : 0, chan13_raw : 0, chan14_raw : 0, chan15_raw : 0, chan16_raw : 0, chan17_raw : 0, chan18_raw : 0, rssi : 255}
RAW_IMU {time_usec : 11396417458, xacc : -223, yacc : -28, zacc : -1018, xgyro : 0, ygyro : 11, zgyro : 8, xmag : 154, ymag : -16, zmag : 308, id : 0, temperature : 4850}
SCALED_IMU2 {time_boot_ms : 11396437, xacc : -259, yacc : -8, zacc : -982, xgyro : -9, ygyro : 66, zgyro : 7, xmag : 150, ymag : -462, zmag : -212, temperature : 4792}
SCALED_PRESSURE {time_boot_ms : 11396437, press_abs : 1008.0257568359375, press_diff : 0.0, temperature : 4368, temperature_press_diff : 0}
GPS_RAW_INT {time_usec : 11396280000, fix_type : 3, lat : 399525445, lon : -751906369, alt : 49830, eph : 95, epv : 169, vel : 142, cog : 13040, satellites_visible : 12, alt_ellipsoid : 15314, h_acc : 5412, v_acc : 12136, vel_acc : 1814, hdg_acc : 0, yaw : 0}
SYSTEM_TIME {time_unix_usec : 1711836391800580, time_boot_ms : 11396437}
AHRS {omegaIx : 0.000987765728496015, omegaIy : -0.013336597010493279, omegaIz : -0.006675392854958773, accel_weight : 0.0, renorm_val : 0.0, error_rp : 0.30233651399612427, error_yaw : 0.005611442495137453}
WIND {direction : -180.0, speed : 0.0, speed_z : 0.0}
TERRAIN_REPORT {lat : 399525499, lon : -751906326, spacing : 100, terrain_height : 10.750404357910156, current_height : -0.11468246579170227, pending : 0, loaded : 336}
EKF_STATUS_REPORT {flags : 33599, velocity_variance : 0.286573588848114, pos_horiz_variance : 0.021591799333691597, pos_vert_variance : 0.03370591998100281, compass_variance : 0.0021657519973814487, terrain_alt_variance : 0.0, airspeed_variance : 0.0}
LOCAL_POSITION_NED {time_boot_ms : 11396457, x : 22.054737091064453, y : -3.9960594177246094, z : -33.09813690185547, vx : -0.22042325139045715, vy : 0.05170486867427826, vz : 0.02293609455227852}
VIBRATION {time_usec : 11396457343, vibration_x : 0.03338747099041939, vibration_y : 0.02060498483479023, vibration_z : 0.02842090092599392, clipping_0 : 5, clipping_1 : 7, clipping_2 : 0}
POSITION_TARGET_GLOBAL_INT {time_boot_ms : 11396457, coordinate_frame : 0, type_mask : 65016, lat_int : 399522760, lon_int : -751902325, alt : 36.15999984741211, vx : 0.0, vy : 0.0, vz : 0.0, afx : 0.0, afy : 0.0, afz : 0.0, yaw : 0.0, yaw_rate : 0.0}
ATTITUDE {time_boot_ms : 11396478, roll : 0.005362570285797119, pitch : -0.28842824697494507, yaw : 0.9499487280845642, rollspeed : 0.0002842640387825668, pitchspeed : 0.0014439355581998825, yawspeed : -0.0005800686776638031}
VFR_HUD {airspeed : 0.0, groundspeed : 0.2320583611726761, heading : 54, throttle : 0, alt : 48.20000076293945, climb : -0.022218912839889526}
AHRS2 {roll : -0.01567171886563301, pitch : -0.28017571568489075, yaw : 0.9592545628547668, altitude : 48.65999984741211, lat : 399525407, lng : -751906363}
AOA_SSA {time_usec : 2806563849, AOA : 0.0, SSA : 0.0}
GLOBAL_POSITION_INT {time_boot_ms : 11396519, lat : 399525495, lon : -751906325, alt : 48200, relative_alt : -23, vx : -22, vy : 5, vz : 2, hdg : 5442}
GLOBAL_POSITION_INT {time_boot_ms : 11396519, lat : 399525495, lon : -751906325, alt : 48200, relative_alt : -23, vx : -22, vy : 5, vz : 2, hdg : 5442}
GPS_GLOBAL_ORIGIN {latitude : 399523517, longitude : -751905857, altitude : 15110, time_usec : 11396597819}
HOME_POSITION {latitude : 399525492, longitude : -751906324, altitude : 50760, x : 21.9854736328125, y : -3.9851226806640625, z : -35.64999771118164, q : [1.0, 0.0, 0.0, 0.0], approach_x : 0.0, approach_y : 0.0, approach_z : 0.0, time_usec : 11396597861}
GLOBAL_POSITION_INT {time_boot_ms : 11396637, lat : 399525489, lon : -751906323, alt : 50740, relative_alt : -18, vx : -24, vy : 6, vz : 2, hdg : 5442}
ATTITUDE {time_boot_ms : 11396677, roll : 0.005854535847902298, pitch : -0.2882627546787262, yaw : 0.9497891068458557, rollspeed : 0.0003760955878533423, pitchspeed : 0.001202254556119442, yawspeed : -0.0007508811540901661}
VFR_HUD {airspeed : 0.0, groundspeed : 0.2584279179573059, heading : 54, throttle : 0, alt : 50.73999786376953, climb : -0.019277997314929962}
AHRS2 {roll : -0.027922334149479866, pitch : -0.2904336452484131, yaw : 0.9626781940460205, altitude : 50.87999725341797, lat : 399525428, lng : -751906356}
AOA_SSA {time_usec : 2806743301, AOA : 0.0, SSA : 0.0}
GLOBAL_POSITION_INT {time_boot_ms : 11396737, lat : 399525483, lon : -751906321, alt : 50750, relative_alt : -9, vx : -26, vy : 7, vz : 1, hdg : 5441}
HEARTBEAT {type : 1, autopilot : 3, base_mode : 89, custom_mode : 11, system_status : 5, mavlink_version : 3}
GLOBAL_POSITION_INT {time_boot_ms : 11396837, lat : 399525476, lon : -751906317, alt : 50760, relative_alt : 2, vx : -27, vy : 8, vz : 1, hdg : 5441}
SYS_STATUS {onboard_control_sensors_present : 325188671, onboard_control_sensors_enabled : 274824239, onboard_control_sensors_health : 57736239, load : 138, voltage_battery : 0, current_battery : -1, battery_remaining : -1, drop_rate_comm : 0, errors_comm : 0, errors_count1 : 0, errors_count2 : 0, errors_count3 : 0, errors_count4 : 0}
POWER_STATUS {Vcc : 4995, Vservo : 4866, flags : 0}
MEMINFO {brkval : 0, freemem : 53984, freemem32 : 53984}
NAV_CONTROLLER_OUTPUT {nav_roll : -14.949999809265137, nav_pitch : 0.0, nav_bearing : 131, target_bearing : 131, wp_dist : 45, alt_error : -14.59999942779541, aspd_error : 0.0, xtrack_error : -19.02436065673828}
MISSION_CURRENT {seq : 0, total : 0, mission_state : 0, mission_mode : 0}
SERVO_OUTPUT_RAW {time_usec : 2806963698, port : 0, servo1_raw : 1226, servo2_raw : 1233, servo3_raw : 1100, servo4_raw : 1637, servo5_raw : 0, servo6_raw : 0, servo7_raw : 0, servo8_raw : 0, servo9_raw : 0, servo10_raw : 0, servo11_raw : 0, servo12_raw : 0, servo13_raw : 0, servo14_raw : 0, servo15_raw : 0, servo16_raw : 0}
RC_CHANNELS {time_boot_ms : 11396898, chancount : 0, chan1_raw : 1500, chan2_raw : 1398, chan3_raw : 0, chan4_raw : 1501, chan5_raw : 0, chan6_raw : 0, chan7_raw : 0, chan8_raw : 0, chan9_raw : 0, chan10_raw : 0, chan11_raw : 0, chan12_raw : 0, chan13_raw : 0, chan14_raw : 0, chan15_raw : 0, chan16_raw : 0, chan17_raw : 0, chan18_raw : 0, rssi : 255}
RAW_IMU {time_usec : 11396898420, xacc : -226, yacc : -26, zacc : -1018, xgyro : 0, ygyro : 15, zgyro : 5, xmag : 153, ymag : -17, zmag : 304, id : 0, temperature : 4851}
SCALED_IMU2 {time_boot_ms : 11396898, xacc : -255, yacc : -20, zacc : -998, xgyro : -17, ygyro : 60, zgyro : -5, xmag : 152, ymag : -462, zmag : -212, temperature : 4793}
SCALED_PRESSURE {time_boot_ms : 11396919, press_abs : 1007.9907836914062, press_diff : 0.0, temperature : 4368, temperature_press_diff : 0}
GPS_RAW_INT {time_usec : 11396880000, fix_type : 3, lat : 399525399, lon : -751906342, alt : 52070, eph : 95, epv : 169, vel : 172, cog : 14205, satellites_visible : 12, alt_ellipsoid : 17554, h_acc : 5403, v_acc : 12068, vel_acc : 1789, hdg_acc : 0, yaw : 0}
SYSTEM_TIME {time_unix_usec : 1711836392282625, time_boot_ms : 11396919}
AHRS {omegaIx : 0.0010659154504537582, omegaIy : -0.01333366334438324, omegaIz : -0.00669423071667552, accel_weight : 0.0, renorm_val : 0.0, error_rp : 0.3245021402835846, error_yaw : 0.002899985061958432}
WIND {direction : -180.0, speed : 0.0, speed_z : 0.0}
TERRAIN_REPORT {lat : 399525468, lon : -751906314, spacing : 100, terrain_height : 10.755985260009766, current_height : 0.006644973531365395, pending : 0, loaded : 336}
EKF_STATUS_REPORT {flags : 33599, velocity_variance : 0.3750501573085785, pos_horiz_variance : 0.02179000712931156, pos_vert_variance : 0.025617189705371857, compass_variance : 0.0001575625647092238, terrain_alt_variance : 0.0, airspeed_variance : 0.0}
LOCAL_POSITION_NED {time_boot_ms : 11396937, x : 21.709836959838867, y : -3.891544818878174, z : -35.66726303100586, vx : -0.29846644401550293, vy : 0.0974389985203743, vz : 0.011683299206197262}
VIBRATION {time_usec : 11396937468, vibration_x : 0.022372467443346977, vibration_y : 0.026694396510720253, vibration_z : 0.03309409320354462, clipping_0 : 5, clipping_1 : 7, clipping_2 : 0}
POSITION_TARGET_GLOBAL_INT {time_boot_ms : 11396937, coordinate_frame : 0, type_mask : 65016, lat_int : 399522760, lon_int : -751902325, alt : 36.15999984741211, vx : 0.0, vy : 0.0, vz : 0.0, afx : 0.0, afy : 0.0, afz : 0.0, yaw : 0.0, yaw_rate : 0.0}
ATTITUDE {time_boot_ms : 11396977, roll : 0.006815070286393166, pitch : -0.28820762038230896, yaw : 0.9496231079101562, rollspeed : 4.076329059898853e-05, pitchspeed : 0.00010711513459682465, yawspeed : 0.0008361544460058212}
VFR_HUD {airspeed : 0.0, groundspeed : 0.3272075355052948, heading : 54, throttle : 0, alt : 50.779998779296875, climb : -0.009748169220983982}
AHRS2 {roll : -0.01575087010860443, pitch : -0.2919290363788605, yaw : 0.9591323733329773, altitude : 51.14999771118164, lat : 399525375, lng : -751906325}
AOA_SSA {time_usec : 2807043738, AOA : 0.0, SSA : 0.0}
GLOBAL_POSITION_INT {time_boot_ms : 11396997, lat : 399525462, lon : -751906311, alt : 50780, relative_alt : 28, vx : -31, vy : 10, vz : 0, hdg : 5440}
GLOBAL_POSITION_INT {time_boot_ms : 11397037, lat : 399525458, lon : -751906309, alt : 50790, relative_alt : 35, vx : -32, vy : 11, vz : 0, hdg : 5440}
GLOBAL_POSITION_INT {time_boot_ms : 11397119, lat : 399525451, lon : -751906305, alt : 50810, relative_alt : 50, vx : -34, vy : 12, vz : 0, hdg : 5440}
ATTITUDE {time_boot_ms : 11397177, roll : 0.007794450968503952, pitch : -0.28811484575271606, yaw : 0.9494079947471619, rollspeed : -0.0004487247206270695, pitchspeed : -0.001369992271065712, yawspeed : 0.00032416824251413345}
VFR_HUD {airspeed : 0.0, groundspeed : 0.38762903213500977, heading : 54, throttle : 0, alt : 50.81999969482422, climb : -0.0013614832423627377}
AHRS2 {roll : -0.0100001385435462, pitch : -0.2896042764186859, yaw : 0.9574429988861084, altitude : 50.39999771118164, lat : 399525358, lng : -751906308}
AOA_SSA {time_usec : 2807243578, AOA : 0.0, SSA : 0.0}
GLOBAL_POSITION_INT {time_boot_ms : 11397237, lat : 399525439, lon : -751906298, alt : 50820, relative_alt : 65, vx : -37, vy : 14, vz : 0, hdg : 5439}
GLOBAL_POSITION_INT {time_boot_ms : 11397319, lat : 399525431, lon : -751906293, alt : 50820, relative_alt : 68, vx : -39, vy : 15, vz : 0, hdg : 5438}
SYS_STATUS {onboard_control_sensors_present : 325188671, onboard_control_sensors_enabled : 274824239, onboard_control_sensors_health : 57736239, load : 138, voltage_battery : 0, current_battery : -1, battery_remaining : -1, drop_rate_comm : 0, errors_comm : 0, errors_count1 : 0, errors_count2 : 0, errors_count3 : 0, errors_count4 : 0}
POWER_STATUS {Vcc : 4990, Vservo : 4830, flags : 0}
MEMINFO {brkval : 0, freemem : 53984, freemem32 : 53984}
NAV_CONTROLLER_OUTPUT {nav_roll : -15.710000038146973, nav_pitch : 0.0, nav_bearing : 131, target_bearing : 131, wp_dist : 45, alt_error : -14.670000076293945, aspd_error : 0.0, xtrack_error : -19.523998260498047}
MISSION_CURRENT {seq : 0, total : 0, mission_state : 0, mission_mode : 0}
SERVO_OUTPUT_RAW {time_usec : 2807482655, port : 0, servo1_raw : 1210, servo2_raw : 1233, servo3_raw : 1100, servo4_raw : 1645, servo5_raw : 0, servo6_raw : 0, servo7_raw : 0, servo8_raw : 0, servo9_raw : 0, servo10_raw : 0, servo11_raw : 0, servo12_raw : 0, servo13_raw : 0, servo14_raw : 0, servo15_raw : 0, servo16_raw : 0}
RC_CHANNELS {time_boot_ms : 11397417, chancount : 0, chan1_raw : 1500, chan2_raw : 1398, chan3_raw : 0, chan4_raw : 1501, chan5_raw : 0, chan6_raw : 0, chan7_raw : 0, chan8_raw : 0, chan9_raw : 0, chan10_raw : 0, chan11_raw : 0, chan12_raw : 0, chan13_raw : 0, chan14_raw : 0, chan15_raw : 0, chan16_raw : 0, chan17_raw : 0, chan18_raw : 0, rssi : 255}
RAW_IMU {time_usec : 11397417353, xacc : -226, yacc : -28, zacc : -1018, xgyro : 0, ygyro : 13, zgyro : 5, xmag : 152, ymag : -16, zmag : 309, id : 0, temperature : 4850}
SCALED_IMU2 {time_boot_ms : 11397417, xacc : -253, yacc : -4, zacc : -975, xgyro : -13, ygyro : 56, zgyro : 1, xmag : 153, ymag : -461, zmag : -213, temperature : 4794}
SCALED_PRESSURE {time_boot_ms : 11397457, press_abs : 1008.0447998046875, press_diff : 0.0, temperature : 4369, temperature_press_diff : 0}
GPS_RAW_INT {time_usec : 11397280000, fix_type : 3, lat : 399525365, lon : -751906322, alt : 52740, eph : 82, epv : 116, vel : 77, cog : 14205, satellites_visible : 14, alt_ellipsoid : 18226, h_acc : 5404, v_acc : 12067, vel_acc : 1834, hdg_acc : 0, yaw : 0}
SYSTEM_TIME {time_unix_usec : 1711836392820512, time_boot_ms : 11397457}
AHRS {omegaIx : 0.0011131779756397009, omegaIy : -0.013327608816325665, omegaIz : -0.006704960949718952, accel_weight : 0.0, renorm_val : 0.0, error_rp : 0.30565717816352844, error_yaw : 0.0024344767443835735}
WIND {direction : -180.0, speed : 0.0, speed_z : 0.0}
TERRAIN_REPORT {lat : 399525419, lon : -751906289, spacing : 100, terrain_height : 10.759450912475586, current_height : 0.05317931994795799, pending : 0, loaded : 336}
EKF_STATUS_REPORT {flags : 33599, velocity_variance : 0.22832530736923218, pos_horiz_variance : 0.020475726574659348, pos_vert_variance : 0.016453582793474197, compass_variance : 0.0002910188923124224, terrain_alt_variance : 0.0, airspeed_variance : 0.0}
LOCAL_POSITION_NED {time_boot_ms : 11397477, x : 21.152212142944336, y : -3.674208164215088, z : -35.71758270263672, vx : -0.430446058511734, vy : 0.17438679933547974, vz : -0.005080006550997496}
VIBRATION {time_usec : 11397477948, vibration_x : 0.025263631716370583, vibration_y : 0.023001300171017647, vibration_z : 0.03717173635959625, clipping_0 : 5, clipping_1 : 7, clipping_2 : 0}
POSITION_TARGET_GLOBAL_INT {time_boot_ms : 11397478, coordinate_frame : 0, type_mask : 65016, lat_int : 399522760, lon_int : -751902325, alt : 36.15999984741211, vx : 0.0, vy : 0.0, vz : 0.0, afx : 0.0, afy : 0.0, afz : 0.0, yaw : 0.0, yaw_rate : 0.0}
ATTITUDE {time_boot_ms : 11397478, roll : 0.008944083005189896, pitch : -0.28798985481262207, yaw : 0.9491071105003357, rollspeed : 0.0001978144282475114, pitchspeed : 3.6842189729213715e-05, yawspeed : -0.0006629452109336853}
VFR_HUD {airspeed : 0.0, groundspeed : 0.4644292891025543, heading : 54, throttle : 0, alt : 50.81999969482422, climb : 0.005080006550997496}
AHRS2 {roll : -0.025265589356422424, pitch : -0.2870573401451111, yaw : 0.9616178274154663, altitude : 49.98999786376953, lat : 399525346, lng : -751906312}
AOA_SSA {time_usec : 2807563788, AOA : 0.0, SSA : 0.0}
GLOBAL_POSITION_INT {time_boot_ms : 11397498, lat : 399525416, lon : -751906287, alt : 50820, relative_alt : 66, vx : -43, vy : 17, vz : 0, hdg : 5437}
GLOBAL_POSITION_INT {time_boot_ms : 11397519, lat : 399525415, lon : -751906287, alt : 50820, relative_alt : 66, vx : -43, vy : 17, vz : 0, hdg : 5437}
GLOBAL_POSITION_INT {time_boot_ms : 11397637, lat : 399525407, lon : -751906283, alt : 50810, relative_alt : 56, vx : -44, vy : 18, vz : 0, hdg : 5437}
ATTITUDE {time_boot_ms : 11397698, roll : 0.009098481386899948, pitch : -0.2880065143108368, yaw : 0.9490188956260681, rollspeed : 0.0008790316642262042, pitchspeed : 0.001257963478565216, yawspeed : -0.000170266255736351}
VFR_HUD {airspeed : 0.0, groundspeed : 0.489987313747406, heading : 54, throttle : 0, alt : 50.79999923706055, climb : 0.002200049813836813}
AHRS2 {roll : -0.04268914461135864, pitch : -0.29442960023880005, yaw : 0.9666035175323486, altitude : 50.75, lat : 399525366, lng : -751906312}
AOA_SSA {time_usec : 2807763795, AOA : 0.0, SSA : 0.0}
GLOBAL_POSITION_INT {time_boot_ms : 11397719, lat : 399525403, lon : -751906281, alt : 50800, relative_alt : 41, vx : -45, vy : 19, vz : 0, hdg : 5437}
HEARTBEAT {type : 1, autopilot : 3, base_mode : 89, custom_mode : 11, system_status : 5, mavlink_version : 3}
GLOBAL_POSITION_INT {time_boot_ms : 11397837, lat : 399525400, lon : -751906279, alt : 50780, relative_alt : 24, vx : -44, vy : 19, vz : 0, hdg : 5437}
SYS_STATUS {onboard_control_sensors_present : 325188671, onboard_control_sensors_enabled : 274824239, onboard_control_sensors_health : 57736239, load : 139, voltage_battery : 0, current_battery : -1, battery_remaining : -1, drop_rate_comm : 0, errors_comm : 0, errors_count1 : 0, errors_count2 : 0, errors_count3 : 0, errors_count4 : 0}
POWER_STATUS {Vcc : 4995, Vservo : 4878, flags : 0}
MEMINFO {brkval : 0, freemem : 53984, freemem32 : 53984}
NAV_CONTROLLER_OUTPUT {nav_roll : -16.059999465942383, nav_pitch : 0.0, nav_bearing : 131, target_bearing : 131, wp_dist : 44, alt_error : -14.619999885559082, aspd_error : 0.0, xtrack_error : -19.819034576416016}
MISSION_CURRENT {seq : 0, total : 0, mission_state : 0, mission_mode : 0}
SERVO_OUTPUT_RAW {time_usec : 2807963755, port : 0, servo1_raw : 1201, servo2_raw : 1233, servo3_raw : 1100, servo4_raw : 1649, servo5_raw : 0, servo6_raw : 0, servo7_raw : 0, servo8_raw : 0, servo9_raw : 0, servo10_raw : 0, servo11_raw : 0, servo12_raw : 0, servo13_raw : 0, servo14_raw : 0, servo15_raw : 0, servo16_raw : 0}
RC_CHANNELS {time_boot_ms : 11397898, chancount : 0, chan1_raw : 1500, chan2_raw : 1398, chan3_raw : 0, chan4_raw : 1501, chan5_raw : 0, chan6_raw : 0, chan7_raw : 0, chan8_raw : 0, chan9_raw : 0, chan10_raw : 0, chan11_raw : 0, chan12_raw : 0, chan13_raw : 0, chan14_raw : 0, chan15_raw : 0, chan16_raw : 0, chan17_raw : 0, chan18_raw : 0, rssi : 255}
RAW_IMU {time_usec : 11397898570, xacc : -226, yacc : -29, zacc : -1017, xgyro : 0, ygyro : 14, zgyro : 5, xmag : 161, ymag : -13, zmag : 300, id : 0, temperature : 4849}
SCALED_IMU2 {time_boot_ms : 11397898, xacc : -258, yacc : -6, zacc : -988, xgyro : -9, ygyro : 68, zgyro : 8, xmag : 154, ymag : -461, zmag : -212, temperature : 4795}
SCALED_PRESSURE {time_boot_ms : 11397919, press_abs : 1008.016845703125, press_diff : 0.0, temperature : 4368, temperature_press_diff : 0}
GPS_RAW_INT {time_usec : 11397880000, fix_type : 3, lat : 399525374, lon : -751906321, alt : 54100, eph : 82, epv : 116, vel : 8, cog : 14205, satellites_visible : 14, alt_ellipsoid : 19584, h_acc : 5410, v_acc : 12112, vel_acc : 1438, hdg_acc : 0, yaw : 0}
SYSTEM_TIME {time_unix_usec : 1711836393300392, time_boot_ms : 11397937}
AHRS {omegaIx : 0.0010751771042123437, omegaIy : -0.013352609239518642, omegaIz : -0.006697958335280418, accel_weight : 0.0, renorm_val : 0.0, error_rp : 0.2826404869556427, error_yaw : 0.001402277615852654}
WIND {direction : -180.0, speed : 0.0, speed_z : 0.0}
TERRAIN_REPORT {lat : 399525397, lon : -751906277, spacing : 100, terrain_height : 10.759645462036133, current_height : 0.01298477128148079, pending : 0, loaded : 336}
EKF_STATUS_REPORT {flags : 33599, velocity_variance : 0.11610337346792221, pos_horiz_variance : 0.013326608575880527, pos_vert_variance : 0.027068210765719414, compass_variance : 0.0015678147319704294, terrain_alt_variance : 0.0, airspeed_variance : 0.0}
LOCAL_POSITION_NED {time_boot_ms : 11397957, x : 20.911083221435547, y : -3.5798044204711914, z : -35.67049789428711, vx : -0.4452155828475952, vy : 0.1997690200805664, vz : -0.001537270494736731}
VIBRATION {time_usec : 11397957134, vibration_x : 0.019715653732419014, vibration_y : 0.022706706076860428, vibration_z : 0.04214535653591156, clipping_0 : 5, clipping_1 : 7, clipping_2 : 0}
POSITION_TARGET_GLOBAL_INT {time_boot_ms : 11397957, coordinate_frame : 0, type_mask : 65016, lat_int : 399522760, lon_int : -751902325, alt : 36.15999984741211, vx : 0.0, vy : 0.0, vz : 0.0, afx : 0.0, afy : 0.0, afz : 0.0, yaw : 0.0, yaw_rate : 0.0}
ATTITUDE {time_boot_ms : 11397957, roll : 0.008701587095856667, pitch : -0.2883189618587494, yaw : 0.9490258693695068, rollspeed : -0.00011198269203305244, pitchspeed : -0.0010426482185721397, yawspeed : 0.0009380253031849861}
VFR_HUD {airspeed : 0.0, groundspeed : 0.48798009753227234, heading : 54, throttle : 0, alt : 50.779998779296875, climb : 0.001537270494736731}
AHRS2 {roll : -0.0481795035302639, pitch : -0.2963567078113556, yaw : 0.9681077599525452, altitude : 50.79999923706055, lat : 399525374, lng : -751906320}
AOA_SSA {time_usec : 2808063199, AOA : 0.0, SSA : 0.0}
GLOBAL_POSITION_INT {time_boot_ms : 11397998, lat : 399525395, lon : -751906277, alt : 50780, relative_alt : 20, vx : -44, vy : 20, vz : 0, hdg : 5437}
GLOBAL_POSITION_INT {time_boot_ms : 11398037, lat : 399525394, lon : -751906276, alt : 50780, relative_alt : 20, vx : -44, vy : 20, vz : 0, hdg : 5437}
GLOBAL_POSITION_INT {time_boot_ms : 11398119, lat : 399525391, lon : -751906276, alt : 50780, relative_alt : 22, vx : -44, vy : 20, vz : 0, hdg : 5437}
ATTITUDE {time_boot_ms : 11398177, roll : 0.008415522053837776, pitch : -0.2883390188217163, yaw : 0.9490677714347839, rollspeed : -0.0006842960137873888, pitchspeed : 0.002422075718641281, yawspeed : -0.0008615478873252869}
VFR_HUD {airspeed : 0.0, groundspeed : 0.4835377335548401, heading : 54, throttle : 0, alt : 50.779998779296875, climb : 0.004883047193288803}
AHRS2 {roll : -0.0426616370677948, pitch : -0.2887783646583557, yaw : 0.9664791226387024, altitude : 49.32999801635742, lat : 399525362, lng : -751906330}
AOA_SSA {time_usec : 2808243445, AOA : 0.0, SSA : 0.0}
GLOBAL_POSITION_INT {time_boot_ms : 11398237, lat : 399525387, lon : -751906277, alt : 50780, relative_alt : 27, vx : -44, vy : 19, vz : 0, hdg : 5437}
GLOBAL_POSITION_INT {time_boot_ms : 11398319, lat : 399525385, lon : -751906278, alt : 50770, relative_alt : 17, vx : -44, vy : 18, vz : 0, hdg : 5437}
SYS_STATUS {onboard_control_sensors_present : 325188671, onboard_control_sensors_enabled : 274824239, onboard_control_sensors_health : 57736239, load : 138, voltage_battery : 0, current_battery : -1, battery_remaining : -1, drop_rate_comm : 0, errors_comm : 0, errors_count1 : 0, errors_count2 : 0, errors_count3 : 0, errors_count4 : 0}
POWER_STATUS {Vcc : 4987, Vservo : 4871, flags : 0}
MEMINFO {brkval : 0, freemem : 53984, freemem32 : 53984}
NAV_CONTROLLER_OUTPUT {nav_roll : -16.06999969482422, nav_pitch : 0.0, nav_bearing : 130, target_bearing : 130, wp_dist : 44, alt_error : -14.609999656677246, aspd_error : 0.0, xtrack_error : -19.914756774902344}
MISSION_CURRENT {seq : 0, total : 0, mission_state : 0, mission_mode : 0}
SERVO_OUTPUT_RAW {time_usec : 2808482721, port : 0, servo1_raw : 1200, servo2_raw : 1233, servo3_raw : 1100, servo4_raw : 1650, servo5_raw : 0, servo6_raw : 0, servo7_raw : 0, servo8_raw : 0, servo9_raw : 0, servo10_raw : 0, servo11_raw : 0, servo12_raw : 0, servo13_raw : 0, servo14_raw : 0, servo15_raw : 0, servo16_raw : 0}
RC_CHANNELS {time_boot_ms : 11398417, chancount : 0, chan1_raw : 1500, chan2_raw : 1398, chan3_raw : 0, chan4_raw : 1501, chan5_raw : 0, chan6_raw : 0, chan7_raw : 0, chan8_raw : 0, chan9_raw : 0, chan10_raw : 0, chan11_raw : 0, chan12_raw : 0, chan13_raw : 0, chan14_raw : 0, chan15_raw : 0, chan16_raw : 0, chan17_raw : 0, chan18_raw : 0, rssi : 255}
RAW_IMU {time_usec : 11398417419, xacc : -229, yacc : -28, zacc : -1013, xgyro : -2, ygyro : 13, zgyro : 5, xmag : 157, ymag : -15, zmag : 305, id : 0, temperature : 4850}
SCALED_IMU2 {time_boot_ms : 11398417, xacc : -254, yacc : -9, zacc : -977, xgyro : -20, ygyro : 65, zgyro : -4, xmag : 153, ymag : -461, zmag : -211, temperature : 4795}
SCALED_PRESSURE {time_boot_ms : 11398437, press_abs : 1008.078857421875, press_diff : 0.0, temperature : 4368, temperature_press_diff : 0}
GPS_RAW_INT {time_usec : 11398280000, fix_type : 3, lat : 399525370, lon : -751906333, alt : 54800, eph : 80, epv : 116, vel : 35, cog : 14205, satellites_visible : 14, alt_ellipsoid : 20284, h_acc : 5412, v_acc : 12135, vel_acc : 1322, hdg_acc : 0, yaw : 0}
SYSTEM_TIME {time_unix_usec : 1711836393800474, time_boot_ms : 11398437}
AHRS {omegaIx : 0.0010370530653744936, omegaIy : -0.013351842761039734, omegaIz : -0.0066919815726578236, accel_weight : 0.0, renorm_val : 0.0, error_rp : 0.31677162647247314, error_yaw : 0.0016738692065700889}
WIND {direction : -180.0, speed : 0.0, speed_z : 0.0}
TERRAIN_REPORT {lat : 399525383, lon : -751906280, spacing : 100, terrain_height : 10.770183563232422, current_height : -0.017553329467773438, pending : 0, loaded : 336}
EKF_STATUS_REPORT {flags : 33599, velocity_variance : 0.16245996952056885, pos_horiz_variance : 0.012421836145222187, pos_vert_variance : 0.03234650194644928, compass_variance : 0.0005864784470759332, terrain_alt_variance : 0.0, airspeed_variance : 0.0}
LOCAL_POSITION_NED {time_boot_ms : 11398478, x : 20.764202117919922, y : -3.6036791801452637, z : -35.65333938598633, vx : -0.4279736578464508, vy : 0.18107245862483978, vz : -0.00337730860337615}
VIBRATION {time_usec : 11398478097, vibration_x : 0.03199714049696922, vibration_y : 0.024038469418883324, vibration_z : 0.031967151910066605, clipping_0 : 5, clipping_1 : 7, clipping_2 : 0}
POSITION_TARGET_GLOBAL_INT {time_boot_ms : 11398478, coordinate_frame : 0, type_mask : 65016, lat_int : 399522760, lon_int : -751902325, alt : 36.15999984741211, vx : 0.0, vy : 0.0, vz : 0.0, afx : 0.0, afy : 0.0, afz : 0.0, yaw : 0.0, yaw_rate : 0.0}
ATTITUDE {time_boot_ms : 11398478, roll : 0.007866602391004562, pitch : -0.28815674781799316, yaw : 0.9491824507713318, rollspeed : -0.0018422864377498627, pitchspeed : -0.0005855876952409744, yawspeed : 0.001072441227734089}
VFR_HUD {airspeed : 0.0, groundspeed : 0.4647027850151062, heading : 54, throttle : 0, alt : 50.7599983215332, climb : 0.00337730860337615}
AHRS2 {roll : -0.05182665213942528, pitch : -0.2968291938304901, yaw : 0.9691919088363647, altitude : 50.939998626708984, lat : 399525378, lng : -751906334}
AOA_SSA {time_usec : 2808563686, AOA : 0.0, SSA : 0.0}
GLOBAL_POSITION_INT {time_boot_ms : 11398498, lat : 399525382, lon : -751906280, alt : 50760, relative_alt : 1, vx : -42, vy : 18, vz : 0, hdg : 5438}
GLOBAL_POSITION_INT {time_boot_ms : 11398519, lat : 399525383, lon : -751906280, alt : 50750, relative_alt : 0, vx : -42, vy : 17, vz : 0, hdg : 5438}
GLOBAL_POSITION_INT {time_boot_ms : 11398637, lat : 399525385, lon : -751906282, alt : 50750, relative_alt : -4, vx : -40, vy : 17, vz : 0, hdg : 5438}
